City,Country,Latitude,Longitude,Max Temp,Humidity,Cloudiness,Wind Speed,Date
mataura,NZ,-46.1927,168.8643,45.48,73,94,0.65,1631581970
ushuaia,AR,-54.8,-68.3,40.66,81,40,14.97,1631581889
rudnogorsk,RU,57.2639,103.7519,42.44,82,100,0.96,1631581971
hilo,US,19.7297,-155.09,83.93,71,40,10.36,1631581856
makaryev,RU,57.8797,43.8069,56.3,93,100,11.88,1631581971
saint-pierre,RE,-21.3393,55.4781,67.64,75,0,6.91,1631581971
bluff,NZ,-46.6,168.3333,45.81,53,41,4.07,1631581972
punta arenas,CL,-53.15,-70.9167,44.71,70,75,10.36,1631581890
qaanaaq,GL,77.484,-69.3632,21.36,75,99,7.9,1631581972
caravelas,BR,-17.7125,-39.2481,73.94,83,0,9.26,1631581972
saryozek,KZ,44.3583,77.9753,54.59,36,73,3.27,1631581973
acarau,BR,-2.8856,-40.12,78.87,84,8,15.35,1631581973
kapaa,US,22.0752,-159.319,87.78,67,40,4.0,1631581973
tasiilaq,GL,65.6145,-37.6368,41.16,77,86,2.39,1631581973
saint anthony,US,45.0205,-93.218,71.22,81,90,3.0,1631581974
bela,IN,25.9333,81.9833,79.2,92,11,12.41,1631581974
albany,US,42.6001,-73.9662,64.02,77,27,4.56,1631581974
la crosse,US,43.8014,-91.2396,69.73,88,90,5.01,1631581841
ust-maya,RU,60.4167,134.5333,59.34,49,100,3.74,1631581975
jamestown,US,42.097,-79.2353,66.07,98,90,2.64,1631581975
pacific grove,US,36.6177,-121.9166,85.98,81,1,5.01,1631581836
valley station,US,38.1112,-85.8702,80.92,75,40,8.05,1631581785
borascu,RO,44.7,23.2833,62.47,67,2,3.18,1631581975
nakamura,JP,32.9833,132.9333,67.5,97,100,6.78,1631581976
rikitea,PF,-23.1203,-134.9692,74.1,77,21,9.01,1631581976
pevek,RU,69.7008,170.3133,35.06,97,100,7.72,1631581976
warrnambool,AU,-38.3833,142.4833,52.81,62,100,7.52,1631581977
stornoway,GB,58.2093,-6.3865,53.92,94,40,1.14,1631581977
kurilsk,RU,45.2333,147.8833,55.8,69,14,22.48,1631581977
muros,ES,42.7762,-9.0603,67.98,90,86,4.16,1631581977
liverpool,GB,53.4106,-2.9779,60.69,85,100,1.01,1631581957
cascais,PT,38.6979,-9.4215,70.95,80,91,4.0,1631581978
port elizabeth,ZA,-33.918,25.5701,56.1,95,100,8.5,1631581978
isangel,VU,-19.55,169.2667,79.48,59,7,6.4,1631581978
saint-denis,FR,48.9167,2.3333,68.11,76,0,1.99,1631581979
vaini,TO,-21.2,-175.2,80.76,78,40,5.75,1631581979
quatre cocos,MU,-20.2078,57.7625,71.1,76,42,16.58,1631581979
alugan,PH,12.2188,125.4808,85.24,67,53,5.57,1631581979
cape town,ZA,-33.9258,18.4232,53.89,82,3,4.0,1631581809
ponta do sol,PT,32.6667,-17.1,72.72,78,31,11.34,1631581980
port alfred,ZA,-33.5906,26.891,64.94,83,100,16.53,1631581980
laguna,US,38.421,-121.4238,97.47,25,1,3.0,1631581980
severnyy,RU,50.677,36.5532,59.04,72,0,6.71,1631581981
carnarvon,AU,-24.8667,113.6333,66.56,35,0,9.95,1631581981
hermanus,ZA,-34.4187,19.2345,53.8,77,100,7.02,1631581981
nanortalik,GL,60.1432,-45.2371,38.07,79,5,10.54,1631581981
chkalovskoye,RU,44.8392,133.0436,54.45,91,100,3.91,1631581982
victoria,HK,22.2855,114.1577,89.96,85,92,1.01,1631581870
oktyabrskoye,RU,43.0645,44.7417,51.94,94,42,4.47,1631581982
khuzdar,PK,27.7384,66.6434,78.84,45,0,0.89,1631581982
upernavik,GL,72.7868,-56.1549,33.42,76,100,8.23,1631581983
kawalu,ID,-7.3817,108.2082,77.52,82,100,2.66,1631581983
hithadhoo,MV,-0.6,73.0833,83.57,74,8,11.65,1631581983
komsomolskiy,UZ,40.4272,71.7189,62.02,41,0,6.91,1631581984
almaznyy,RU,48.0448,40.045,53.74,61,53,2.59,1631581984
sorland,NO,67.667,12.6934,47.68,66,66,11.77,1631581985
atuona,PF,-9.8,-139.0333,77.56,68,3,18.5,1631581833
nelson bay,AU,-32.7167,152.15,59.29,66,48,19.51,1631581985
new norfolk,AU,-42.7826,147.0587,53.74,48,9,2.82,1631581985
hami,CN,42.8,93.45,70.16,31,10,5.95,1631581985
arraial do cabo,BR,-22.9661,-42.0278,71.85,90,0,25.79,1631581986
zhanakorgan,KZ,43.9098,67.2495,63.01,35,4,4.59,1631581986
bambous virieux,MU,-20.3428,57.7575,71.22,74,33,16.64,1631581986
carballo,ES,43.213,-8.691,66.9,90,100,2.64,1631581987
booue,GA,-0.0921,11.9385,71.82,97,73,2.17,1631581987
kodiak,US,57.79,-152.4072,51.03,72,100,19.8,1631581987
ribeira grande,PT,38.5167,-28.7,70.97,89,66,10.83,1631581988
sao joao da barra,BR,-21.6403,-41.0511,73.78,88,4,21.79,1631581988
mar del plata,AR,-38.0023,-57.5575,51.82,71,0,4.61,1631581988
avarua,CK,-21.2078,-159.775,78.85,69,40,13.8,1631581797
mahebourg,MU,-20.4081,57.7,71.26,74,24,16.62,1631581989
ambilobe,MG,-13.2,49.05,67.93,72,3,4.03,1631581989
puerto ayora,EC,-0.7393,-90.3518,67.55,95,47,5.01,1631581989
yining,CN,29.0361,114.5636,79.63,80,2,1.97,1631581989
gat,IL,31.61,34.7642,79.39,70,0,6.73,1631581990
dingle,PH,10.9995,122.6711,82.78,78,100,4.12,1631581990
gazojak,TM,41.1875,61.4036,64.42,18,0,10.33,1631581990
cabo san lucas,MX,22.8909,-109.9124,86.5,76,20,4.0,1631581818
barrow,US,71.2906,-156.7887,39.22,87,90,16.11,1631581991
bisira,PA,8.5196,-81.7115,60.76,97,100,0.78,1631581991
busselton,AU,-33.65,115.3333,58.05,72,0,7.58,1631581991
prince george,CA,53.9166,-122.753,66.25,41,94,1.01,1631581991
hasaki,JP,35.7333,140.8333,75.6,62,100,6.42,1631581992
ligatne,LV,57.2343,25.0406,45.25,92,100,1.01,1631581992
dunedin,NZ,-45.8742,170.5036,43.77,73,94,7.0,1631581992
chebenki,RU,51.9337,55.7077,42.55,47,30,4.59,1631581993
iqaluit,CA,63.7506,-68.5145,34.34,68,6,8.55,1631581994
malabo,GQ,3.75,8.7833,77.86,84,100,6.04,1631581994
sahbuz,AZ,39.4072,45.5739,60.4,60,0,4.56,1631581995
chibuto,MZ,-24.6867,33.5306,62.76,84,0,7.61,1631581995
pramanta,GR,39.5231,21.1014,55.2,75,0,4.9,1631581995
atherton,GB,53.5237,-2.4935,59.9,82,100,3.0,1631581996
lompoc,US,34.6391,-120.4579,80.74,80,75,9.22,1631581729
barcelos,PT,41.5388,-8.6151,66.92,95,2,5.14,1631581996
byron bay,AU,-28.65,153.6167,73.06,28,0,11.34,1631581996
lebu,CL,-37.6167,-73.65,45.79,75,0,8.19,1631581996
cayenne,GF,4.9333,-52.3333,82.09,82,20,1.01,1631581997
nikolskoye,RU,59.7035,30.7861,49.89,61,14,13.2,1631581997
khash,IR,28.2211,61.2158,66.04,12,0,3.76,1631581997
makakilo city,US,21.3469,-158.0858,88.12,55,1,11.5,1631581998
ust-ilimsk,RU,58.0006,102.6619,46.13,79,100,4.7,1631581998
kon tum,VN,14.35,108.0,76.8,91,65,1.05,1631581998
tuktoyaktuk,CA,69.4541,-133.0374,46.74,76,76,14.0,1631581999
homer,US,59.6425,-151.5483,53.49,76,90,12.66,1631581999
qaqortoq,GL,60.7167,-46.0333,37.9,66,0,4.45,1631581999
zhangjiakou,CN,40.81,114.8794,67.5,84,100,7.76,1631581999
southbridge,US,42.0751,-72.0334,66.56,83,36,3.27,1631582000
yellowknife,CA,62.456,-114.3525,55.92,82,40,6.91,1631582000
inuvik,CA,68.3499,-133.7218,54.28,57,100,7.05,1631581954
saskylakh,RU,71.9167,114.0833,45.41,84,100,4.43,1631582001
saint-philippe,RE,-21.3585,55.7679,67.55,76,41,12.48,1631582001
yulara,AU,-25.2406,130.9889,67.84,18,27,11.5,1631582001
grants pass,US,42.439,-123.3284,84.61,31,1,3.0,1631582001
sao jose da coroa grande,BR,-8.8978,-35.1478,74.88,88,10,7.2,1631582002
mantua,IT,45.1667,10.7833,70.72,77,100,1.01,1631582002
sobolevo,RU,54.4299,31.8996,51.06,98,100,7.74,1631582002
guanambi,BR,-14.2233,-42.7814,80.65,38,49,12.26,1631582003
severo-kurilsk,RU,50.6789,156.125,49.62,89,100,28.59,1631582003
naigarhi,IN,24.7833,81.7833,75.49,95,60,11.7,1631582003
kayes,ML,14.0,-11.0,76.64,93,16,7.29,1631582003
touros,BR,-5.1989,-35.4608,76.1,81,5,12.68,1631582004
cadillac,US,44.2519,-85.4012,60.8,88,75,4.61,1631582004
sitka,US,57.0531,-135.33,55.29,76,90,9.22,1631582004
zhigansk,RU,66.7697,123.3711,47.93,96,100,6.22,1631582005
chokurdakh,RU,70.6333,147.9167,47.44,54,94,2.66,1631582005
batagay,RU,67.6333,134.6333,55.24,46,100,3.49,1631582005
tiksi,RU,71.6872,128.8694,44.78,83,100,2.98,1631582005
monroe,US,43.1501,-77.6831,64.47,82,75,4.61,1631582006
hobart,AU,-42.8794,147.3294,54.1,63,20,4.0,1631582006
hovd,MN,48.0056,91.6419,54.34,44,1,6.67,1631582006
thompson,CA,55.7435,-97.8558,50.16,100,90,5.75,1631582006
butaritari,KI,3.0707,172.7902,82.33,76,100,17.09,1631582007
georgetown,MY,5.4112,100.3354,79.9,86,20,0.0,1631581856
merauke,ID,-8.4667,140.3333,82.74,75,99,12.97,1631582007
mount gambier,AU,-37.8333,140.7667,52.07,71,100,3.53,1631582008
port macquarie,AU,-31.4333,152.9167,58.89,72,75,18.41,1631581840
sabha,LY,27.0377,14.4283,78.69,32,0,12.8,1631582008
kahului,US,20.8947,-156.47,86.02,57,40,26.46,1631581812
cidreira,BR,-30.1811,-50.2056,66.33,98,100,9.73,1631582008
tapiramuta,BR,-11.8472,-40.7914,64.42,83,3,4.92,1631582008
charleston,US,32.7766,-79.9309,79.02,87,75,3.0,1631582009
gamba,GA,-2.65,10.0,76.08,87,100,5.23,1631582009
galveston,US,29.3669,-94.9669,75.31,83,100,1.99,1631582009
coihueco,CL,-36.6167,-71.8333,45.34,100,89,0.0,1631582010
deputatskiy,RU,69.3,139.9,52.29,41,55,1.74,1631582010
dikson,RU,73.5069,80.5464,40.21,87,18,21.18,1631582010
la macarena,CO,2.1837,-73.7849,75.9,80,64,2.13,1631582010
cherskiy,RU,68.75,161.3,46.67,58,100,4.94,1631582011
chuy,UY,-33.6971,-53.4616,56.3,98,17,4.59,1631582011
bredasdorp,ZA,-34.5322,20.0403,53.28,83,100,2.82,1631582011
saint george,US,37.1041,-113.5841,99.63,10,1,1.01,1631582011
saldanha,ZA,-33.0117,17.9442,54.18,81,0,14.0,1631582012
natchez,US,31.5604,-91.4032,77.22,94,20,0.0,1631582012
mandalgovi,MN,45.7625,106.2708,57.02,60,100,12.88,1631582013
surat thani,TH,9.1667,99.25,79.92,82,100,8.08,1631582013
castro,BR,-24.7911,-50.0119,70.03,40,64,4.54,1631582013
flinders,AU,-34.5833,150.8552,58.21,75,43,14.65,1631582013
olocuilta,SV,13.5697,-89.1172,75.42,83,20,4.61,1631582014
mumford,GH,5.2618,-0.759,75.52,92,100,11.7,1631582014
khatanga,RU,71.9667,102.5,45.9,63,100,8.34,1631582014
riyadh,SA,24.6877,46.7219,77.14,23,2,1.86,1631581747
swan river,CA,52.1058,-101.2676,59.58,48,46,6.46,1631582015
lavrentiya,RU,65.5833,-171.0,44.38,83,100,15.99,1631582015
tabou,CI,4.423,-7.3528,77.11,90,94,5.32,1631582015
san juan bautista,PE,-14.0108,-75.7358,56.17,69,6,2.59,1631582016
manuk mangkaw,PH,4.8,119.85,83.19,72,100,8.19,1631582016
avera,US,33.194,-82.5271,77.72,57,0,2.89,1631582016
high level,CA,58.5169,-117.136,62.44,38,95,3.62,1631581801
seoul,KR,37.5683,126.9778,77.41,55,1,5.28,1631581723
sinop,TR,41.7711,34.8709,59.43,95,92,1.21,1631582016
longyearbyen,SJ,78.2186,15.6401,30.04,86,40,3.44,1631582017
narsaq,GL,60.9167,-46.05,37.62,58,0,6.08,1631582017
moose factory,CA,51.2585,-80.6094,44.02,81,100,4.16,1631582017
pisco,PE,-13.7,-76.2167,61.02,82,20,6.91,1631582018
sinnamary,GF,5.3833,-52.95,77.59,88,8,6.22,1631582018
berlevag,NO,70.8578,29.0864,42.4,77,100,14.14,1631582018
meulaboh,ID,4.1363,96.1285,76.59,77,98,3.83,1631582018
bahia de caraquez,EC,-0.6,-80.4167,71.78,85,92,8.72,1631582019
vao,NC,-22.6667,167.4833,71.31,79,2,10.42,1631582019
norman wells,CA,65.282,-126.8329,58.08,56,7,7.18,1631582019
namtsy,RU,62.7161,129.6658,53.71,78,100,6.53,1631582020
qinzhou,CN,21.95,108.6167,83.8,83,100,6.26,1631582020
francisco sa,BR,-16.4758,-43.4883,78.84,30,11,12.01,1631582020
maniago,IT,46.1706,12.7078,65.14,77,30,5.08,1631582020
pangody,RU,65.85,74.4859,41.9,88,100,5.88,1631582021
luderitz,NA,-26.6481,15.1594,52.36,76,0,13.89,1631582021
palmeira das missoes,BR,-27.8994,-53.3136,67.48,88,100,11.12,1631582021
codrington,AU,-38.2667,141.9667,53.08,63,100,8.08,1631582021
bahia blanca,AR,-38.7196,-62.2724,51.35,59,100,5.77,1631582022
shemonaikha,KZ,50.6328,81.9056,42.62,55,0,5.44,1631582022
bilibino,RU,68.0546,166.4372,35.94,99,100,2.98,1631582022
pastores,GT,14.5967,-90.7547,65.1,89,37,0.25,1631582022
meadow lake,US,34.8014,-106.5436,89.08,27,1,5.77,1631582023
jackson,US,42.4165,-122.8345,83.16,31,1,9.22,1631582023
sept-iles,CA,50.2001,-66.3821,57.25,71,6,4.0,1631581742
ostrovnoy,RU,68.0531,39.5131,41.83,80,95,18.84,1631582024
arona,ES,28.0996,-16.681,69.82,79,20,4.61,1631582024
haapiti,PF,-17.5667,-149.8667,80.33,72,20,17.74,1631582024
sokoni,TZ,-6.4333,39.55,75.87,77,71,12.21,1631582024
san patricio,US,28.017,-97.5169,79.52,84,100,17.07,1631582025
kruisfontein,ZA,-34.0033,24.7314,53.89,97,100,2.82,1631582025
rio grande,BR,-32.035,-52.0986,61.95,96,100,17.29,1631582025
mugan,CN,35.9404,101.3842,56.95,85,100,1.88,1631582026
rudbar,AF,30.15,62.6,71.22,19,2,6.53,1631582026
east london,ZA,-33.0153,27.9116,65.17,76,100,13.0,1631582026
skibbereen,IE,51.55,-9.2667,58.8,95,100,6.55,1631582026
kefamenanu,ID,-9.4467,124.4781,84.79,50,30,5.68,1631582027
northam,GB,51.0333,-4.2167,60.1,96,100,6.15,1631582027
itagiba,BR,-14.2836,-39.8428,66.65,98,14,0.4,1631582027
paamiut,GL,61.994,-49.6678,36.81,58,0,22.7,1631582028
nishihara,JP,26.1842,127.7558,85.66,95,75,12.66,1631582028
ukiah,US,39.1502,-123.2078,94.12,14,1,0.0,1631581804
esperance,AU,-33.8667,121.9,58.28,62,0,9.33,1631582028
aksu,CN,41.1231,80.2644,66.15,46,0,1.23,1631582029
sooke,CA,48.3746,-123.7276,66.18,68,78,7.23,1631582029
aguimes,ES,27.9054,-15.4461,72.23,77,40,3.44,1631582029
bosaso,SO,11.2842,49.1816,91.74,41,4,13.71,1631582029
san andres,CO,12.5847,-81.7006,78.82,89,20,4.61,1631582030
kavaratti,IN,10.5669,72.642,81.32,80,100,21.59,1631582030
puerto escondido,MX,15.85,-97.0667,79.63,57,75,0.0,1631582030
san quintin,MX,30.4833,-115.95,73.0,73,0,11.25,1631582030
nabire,ID,-3.3667,135.4833,79.97,80,98,2.21,1631582031
chenghai,CN,23.4632,116.768,86.92,68,99,5.7,1631582031
tuy hoa,VN,13.0833,109.3,82.78,78,87,3.24,1631582031
andros town,BS,24.7,-77.7667,80.56,69,100,8.95,1631582032
olovyannaya,RU,50.95,115.5667,56.82,59,96,10.0,1631582032
kiama,AU,-34.6833,150.8667,55.0,80,71,14.92,1631582032
bengkulu,ID,-3.8004,102.2655,74.82,84,100,4.88,1631582033
nouadhibou,MR,20.931,-17.0347,72.97,87,0,18.75,1631582033
nemuro,JP,43.3236,145.575,59.09,65,1,14.36,1631582033
borogontsy,RU,62.6683,131.1683,58.17,55,100,5.3,1631582033
acapulco,MX,16.8634,-99.8901,78.62,89,90,6.91,1631581773
gaomi,CN,36.3833,119.7528,75.42,66,0,11.77,1631582034
itarema,BR,-2.9248,-39.9167,78.75,84,10,14.85,1631582034
jaypur,IN,18.85,82.5833,71.87,98,100,10.04,1631582034
banjar,ID,-8.19,114.9675,82.26,69,44,1.12,1631582035
piacabucu,BR,-10.4056,-36.4344,74.08,89,38,7.76,1631582035
naze,JP,28.3667,129.4833,76.12,83,100,17.69,1631582035
whitecourt,CA,54.1502,-115.6855,59.88,50,35,4.18,1631582036
kudahuvadhoo,MV,2.6708,72.8944,82.87,74,19,7.7,1631582036
port said,EG,31.2565,32.2841,78.67,72,0,9.24,1631582036
guozhen,CN,34.3659,107.359,72.43,65,9,4.21,1631582036
nouakchott,MR,18.0858,-15.9785,84.13,79,100,22.41,1631582037
katangli,RU,51.7102,143.2326,55.22,57,0,10.63,1631582037
campbellton,CA,48.0075,-66.6727,56.52,71,93,11.12,1631582037
morgan city,US,29.6994,-91.2068,82.04,94,1,3.44,1631582038
jiayuguan,CN,39.8167,98.3,60.78,55,100,7.05,1631582038
aklavik,CA,68.2191,-135.0107,53.62,64,95,10.54,1631582038
midland,US,31.9974,-102.0779,86.67,38,1,9.22,1631581441
walvis bay,NA,-22.9575,14.5053,54.09,88,0,13.22,1631582038
provideniya,RU,64.3833,-173.3,46.51,76,90,15.66,1631582039
sambava,MG,-14.2667,50.1667,68.5,88,72,10.74,1631582039
margate,GB,51.3813,1.3862,64.11,90,100,11.5,1631582039
loandjili,CG,-4.7561,11.8578,74.89,86,64,3.74,1631582039
buckingham,GB,51.9997,-0.9878,60.28,87,100,8.34,1631582040
bac lieu,VN,9.285,105.7244,78.17,86,100,14.63,1631582040
waingapu,ID,-9.6567,120.2641,84.2,64,46,10.63,1631582040
bereda,ES,43.2686,-7.5406,62.35,100,71,1.99,1631582041
faanui,PF,-16.4833,-151.75,78.73,74,15,15.59,1631582041
ola,RU,59.5833,151.2833,53.56,43,5,1.74,1631582041
zhangye,CN,38.9342,100.4517,58.91,74,100,3.67,1631582041
okhotsk,RU,59.3833,143.3,60.82,50,3,2.91,1631582042
ordynskoye,RU,54.3656,81.8994,41.36,66,96,9.62,1631582042
goderich,CA,43.7501,-81.7165,60.91,75,11,7.14,1631582042
hofn,IS,64.2539,-15.2082,50.38,76,100,29.55,1631582043
balad,IQ,34.0164,44.1453,81.34,31,0,10.27,1631582043
tautira,PF,-17.7333,-149.15,80.62,76,53,15.88,1631582043
torbay,CA,47.6666,-52.7314,59.58,84,99,5.01,1631582043
rawson,AR,-43.3002,-65.1023,50.74,35,0,6.93,1631582044
fare,PF,-16.7,-151.0167,77.94,77,32,15.21,1631582044
vostok,RU,46.4856,135.8833,58.19,55,99,3.89,1631582044
port-gentil,GA,-0.7193,8.7815,76.89,85,97,13.22,1631582045
salalah,OM,17.0151,54.0924,80.69,89,75,3.44,1631582045
upington,ZA,-28.4478,21.2561,58.62,39,8,9.84,1631582045
azovo,RU,54.6997,73.0237,33.55,81,23,5.55,1631582045
bagdarin,RU,54.4333,113.6,49.8,76,100,1.97,1631582046
champerico,GT,14.3,-91.9167,83.35,79,31,5.73,1631582046
oudtshoorn,ZA,-33.5907,22.2014,52.72,90,100,2.1,1631582046
grindavik,IS,63.8424,-22.4338,46.9,76,75,25.32,1631582047
kananga,CD,-5.8958,22.4178,72.48,66,39,2.48,1631582047
hanyang,CN,32.1371,105.5126,68.65,91,100,3.2,1631582047
neiafu,TO,-18.65,-173.9833,83.08,69,20,9.22,1631582047
seydi,TM,39.4816,62.9137,66.13,17,0,10.98,1631582048
dorverden,DE,52.85,9.2333,54.37,92,16,3.94,1631582048
wanning,CN,18.8003,110.3967,83.07,86,15,9.08,1631582044
tabuk,PH,17.4189,121.4443,82.63,75,65,4.05,1631582048
santa vitoria do palmar,BR,-33.5189,-53.3681,57.38,99,32,4.68,1631582049
kavieng,PG,-2.5744,150.7967,84.27,74,76,15.08,1631582049
ginir,ET,7.1333,40.7,60.49,67,100,9.57,1631582049
bathsheba,BB,13.2167,-59.5167,82.0,76,92,6.49,1631582049
sheboygan,US,43.7333,-87.9334,65.52,89,1,4.0,1631582050
tukan,RU,53.8409,57.4552,51.98,57,98,7.07,1631582050
imbituba,BR,-28.24,-48.6703,69.69,98,100,4.83,1631582050
klaksvik,FO,62.2266,-6.589,52.72,86,100,17.2,1631582051
kiruna,SE,67.8557,20.2251,36.52,87,90,11.5,1631582051
maniitsoq,GL,65.4167,-52.9,34.79,60,0,8.03,1631582051
ilulissat,GL,69.2167,-51.1,30.22,74,75,3.44,1631582051
honningsvag,NO,70.9821,25.9704,43.74,75,100,14.67,1631582052
raga,SS,8.4596,25.678,69.03,96,100,2.46,1631582052
rio gallegos,AR,-51.6226,-69.2181,48.25,49,40,24.16,1631582052
lagoa da prata,BR,-20.0225,-45.5436,75.72,29,100,1.43,1631582052
artesia,US,33.8658,-118.0831,98.08,53,1,4.0,1631582053
san rafael,AR,-34.6177,-68.3301,49.78,32,0,8.95,1631582053
mareeba,AU,-17.0,145.4333,86.43,50,12,6.55,1631582053
kuala kedah,MY,6.1,100.3,81.18,78,100,2.62,1631582054
talnakh,RU,69.4865,88.3972,43.11,81,100,11.05,1631582054
kaitangata,NZ,-46.2817,169.8464,43.86,71,99,3.31,1631582054
labuhan,ID,-6.8844,112.2051,82.74,73,88,8.08,1631582055
san policarpo,PH,12.1791,125.5072,85.24,67,45,5.41,1631582055
bethel,US,41.3712,-73.414,75.78,86,1,3.44,1631581984
qandala,SO,11.472,49.8728,88.38,61,6,4.14,1631582055
ahipara,NZ,-35.1667,173.1667,59.4,95,100,6.49,1631582056
coquimbo,CL,-29.9533,-71.3436,55.13,76,0,3.44,1631581996
vangaindrano,MG,-23.35,47.6,67.23,90,89,4.05,1631582056
niltepec,MX,16.5667,-94.6167,76.53,92,23,2.04,1631582057
jiangyou,CN,31.7667,104.7167,71.31,92,100,3.8,1631582057
gazanjyk,TM,39.2446,55.5154,71.85,17,0,7.92,1631582057
novita,CO,4.9551,-76.6053,73.58,98,27,1.68,1631582057
petropavlovsk-kamchatskiy,RU,53.0452,158.6483,52.39,66,75,4.47,1631582058
chapais,CA,49.7834,-74.8492,46.18,73,100,5.23,1631582058
beringovskiy,RU,63.05,179.3167,35.78,75,100,18.07,1631582058
korla,CN,41.7597,86.1469,67.82,44,0,7.43,1631582059
guerrero negro,MX,27.9769,-114.0611,74.86,77,0,15.55,1631582059
olafsvik,IS,64.8945,-23.7142,46.65,87,100,30.76,1631582059
ushtobe,KZ,45.2514,77.9838,54.54,24,100,12.73,1631582059
port blair,IN,11.6667,92.75,82.31,80,100,16.06,1631582060
folldal,NO,62.1325,9.9968,39.81,86,100,1.36,1631582060
gujar khan,PK,33.2558,73.3026,78.64,67,0,4.54,1631582060
tortoli,IT,39.9256,9.6572,70.83,66,82,3.27,1631582061
taltal,CL,-25.4,-70.4833,61.02,64,100,2.82,1631582061
novo selo,MK,41.4139,22.8811,64.17,46,6,4.5,1631582061
souillac,MU,-20.5167,57.5167,71.37,77,24,13.73,1631582061
chernyshevskiy,RU,63.0128,112.4714,48.72,73,100,6.04,1631582062
le vauclin,MQ,14.5452,-60.8388,78.85,94,0,2.3,1631582062
ancud,CL,-41.8697,-73.8203,44.42,79,94,7.16,1631582062
pascagoula,US,30.3658,-88.5561,80.65,84,1,4.61,1631582062
bandarbeyla,SO,9.4942,50.8122,77.43,75,5,25.3,1631582063
quesnel,CA,52.9999,-122.5029,67.78,38,20,4.52,1631582063
chitral,PK,35.8462,71.7858,67.23,71,0,1.92,1631582063
tirumullaivasal,IN,11.2333,79.8333,81.84,69,100,13.69,1631582064
campestre,BR,-21.7111,-46.2464,70.9,31,94,0.31,1631582064
kanigoro,ID,-8.13,112.219,80.42,76,89,0.58,1631582064
naranjito,EC,-2.2167,-79.4833,76.42,80,99,4.76,1631582064
nuuk,GL,64.1835,-51.7216,36.21,55,0,12.66,1631582065
nyurba,RU,63.2842,118.3319,55.17,66,65,7.29,1631582065
crestview,US,30.7621,-86.5705,80.96,80,75,1.01,1631581709
sistranda,NO,63.7256,8.834,50.9,67,100,5.37,1631582065
tamandare,BR,-8.7597,-35.1047,74.55,89,13,6.51,1631582066
carora,VE,10.1755,-70.0827,81.97,56,68,5.79,1631582066
tevaitoa,PF,-16.7833,-151.5,78.46,74,55,15.39,1631582066
slave lake,CA,55.2834,-114.769,58.62,51,10,6.11,1631582066
novopokrovka,UA,49.8425,36.5477,59.38,52,5,4.38,1631582067
brigantine,US,39.4101,-74.3646,80.8,82,1,5.75,1631582067
havelock,US,34.8791,-76.9013,78.94,86,1,1.01,1631582067
birjand,IR,32.8663,59.2211,62.2,12,0,6.17,1631582068
hervey bay,AU,-25.2986,152.8535,77.04,36,0,9.73,1631582068
nogliki,RU,51.8333,143.1667,55.44,57,0,10.29,1631582068
suixi,CN,33.8907,116.7747,75.65,67,0,8.81,1631582069
husavik,IS,66.0449,-17.3389,47.61,62,2,22.37,1631582069
hudson bay,CA,52.85,-102.3842,58.86,52,67,5.32,1631582069
buala,SB,-8.145,159.5921,85.28,69,68,10.54,1631582070
mehamn,NO,71.0357,27.8492,41.94,79,100,12.82,1631582070
athabasca,CA,54.7169,-113.2854,59.16,52,48,4.81,1631582070
lorengau,PG,-2.0226,147.2712,80.46,80,100,7.11,1631582070
joshimath,IN,30.5667,79.5667,67.14,90,99,2.01,1631582071
nome,US,64.5011,-165.4064,50.07,87,90,3.44,1631582071
anshun,CN,26.25,105.9333,69.75,85,2,5.3,1631582071
jurm,AF,36.8648,70.8342,53.96,38,0,2.24,1631582072
gberia fotombu,SL,9.8833,-11.1667,68.9,96,49,0.87,1631582072
mecca,SA,21.4267,39.8261,84.29,33,6,5.35,1631581936
west lafayette,US,40.4259,-86.9081,77.29,68,1,0.0,1631581826
nurota,UZ,40.5614,65.6886,60.89,31,0,5.41,1631582072
grand gaube,MU,-20.0064,57.6608,71.38,72,10,5.99,1631582072
ejido,VE,8.5514,-71.2375,65.93,90,19,6.15,1631582073
ballina,AU,-28.8667,153.5667,67.78,31,0,8.14,1631582073
hagere hiywet,ET,8.9833,37.85,58.17,92,100,1.59,1631582073
venado tuerto,AR,-33.7456,-61.9688,53.76,44,22,18.12,1631582074
bokoro,TD,12.3807,17.0568,74.82,87,80,6.53,1631582074
srednyaya akhtuba,RU,48.7089,44.8667,58.66,34,55,4.38,1631582074
arawa,PG,-6.2132,155.5367,88.81,58,70,6.78,1631582074
sao filipe,CV,14.8961,-24.4956,79.43,82,46,1.88,1631582075
lamar,US,33.6668,-95.5836,81.52,70,75,6.91,1631582075
bom jesus,BR,-9.0744,-44.3586,80.53,32,5,6.13,1631582075
sulangan,PH,11.1373,123.7228,83.39,71,79,4.56,1631582075
nsanje,MW,-16.92,35.262,73.36,68,0,3.33,1631582076
louis trichardt,ZA,-23.0439,29.9032,61.77,31,0,3.53,1631582076
geraldton,AU,-28.7667,114.6,57.13,67,0,5.75,1631582069
matadi,CD,-5.8167,13.45,76.8,75,92,6.64,1631582076
atambua,ID,-9.1061,124.8925,84.45,52,18,1.43,1631582077
necochea,AR,-38.5473,-58.7368,47.03,77,100,6.38,1631582077
tomakomai,JP,42.6369,141.6033,64.54,55,75,11.5,1631582077
vila franca do campo,PT,37.7167,-25.4333,68.41,85,40,4.43,1631582078
astaneh-ye ashrafiyeh,IR,37.2596,49.9444,68.14,67,0,5.14,1631582078
stryn,NO,61.9045,6.7226,50.31,87,100,0.54,1631582078
peniche,PT,39.3558,-9.3811,71.08,91,36,8.1,1631582079
broken hill,AU,-31.95,141.4333,57.02,46,47,8.32,1631582079
atar,MR,20.5169,-13.0499,94.12,28,6,14.12,1631582079
lulea,SE,65.5842,22.1547,44.67,70,90,16.11,1631582079
tessalit,ML,20.1986,1.0114,93.16,18,31,3.91,1631582080
barhiya,IN,25.2833,86.0333,78.85,88,100,15.28,1631582080
cetraro,IT,39.5166,15.9416,64.24,83,33,1.03,1631582080
porto novo,BJ,6.4965,2.6036,72.41,93,100,2.66,1631582081
paita,PE,-5.0892,-81.1144,64.81,84,20,16.37,1631582081
diffa,NE,13.3154,12.6113,77.13,74,99,3.85,1631582081
alice springs,AU,-23.7,133.8833,67.55,19,30,12.66,1631582081
bukachacha,RU,52.9833,116.9167,54.16,81,22,3.0,1631582082
puerto ayacucho,VE,5.6639,-67.6236,73.56,91,6,4.0,1631582082
half moon bay,US,37.4636,-122.4286,90.72,72,1,4.61,1631582082
salamiyah,SY,35.0113,37.0532,68.09,68,0,6.2,1631582083
sain alto,MX,23.5833,-103.25,67.32,53,94,6.08,1631582083
ushibuka,JP,32.1906,130.0228,75.2,90,100,12.62,1631582083
hirara,JP,24.8,125.2833,83.93,83,62,18.72,1631582084
faya,SA,18.3851,42.4509,61.32,50,83,4.27,1631582084
hambantota,LK,6.1241,81.1185,79.84,83,57,15.9,1631582084
lanzhou,CN,36.0564,103.7922,65.93,75,100,8.7,1631582046
grosseto,IT,42.8333,11.25,70.92,68,72,3.4,1631582084
airai,TL,-8.9266,125.4092,75.4,43,66,3.89,1631582085
morondava,MG,-20.2833,44.2833,71.83,74,9,3.22,1631582085
dodoma,TZ,-6.1722,35.7395,62.71,71,33,8.84,1631582085
petrozavodsk,RU,61.7849,34.3469,40.19,92,100,16.15,1631581949
uva,RU,56.9908,52.1852,56.46,86,100,9.33,1631582086
teguise,ES,29.0605,-13.564,70.02,73,0,3.44,1631582046
trelew,AR,-43.249,-65.3051,51.01,28,0,6.06,1631581839
narva-joesuu,EE,59.4589,28.0408,50.56,60,80,23.62,1631582086
razole,IN,16.4833,81.8333,80.89,93,100,7.36,1631582087
siirt,TR,37.9326,41.9403,68.31,43,0,2.98,1631582087
pemangkat,ID,1.1667,108.9667,75.42,93,100,4.81,1631582087
guadalupe y calvo,MX,26.1,-106.9667,56.39,84,98,3.8,1631582087
akdepe,TM,42.0551,59.3788,62.69,19,0,9.31,1631582088
yerbogachen,RU,61.2767,108.0108,47.68,71,100,7.61,1631582088
umiray,PH,15.2206,121.4111,84.29,74,12,2.1,1631582088
wloszczowa,PL,50.8526,19.9659,58.17,81,59,3.22,1631582089
juneau,US,58.3019,-134.4197,57.25,98,90,4.0,1631581945
namatanai,PG,-3.6667,152.4333,84.16,71,66,10.07,1631582089
asau,RO,46.4333,26.4,59.76,96,0,3.15,1631582089
laukaa,RU,58.7372,29.8453,46.49,70,100,11.39,1631582091
naron,ES,43.5167,-8.1528,68.04,92,100,4.03,1631581897
panjab,AF,34.388,67.0233,44.6,29,0,3.42,1631582091
westport,US,41.1415,-73.3579,80.58,80,1,1.99,1631582091
noumea,NC,-22.2763,166.4572,84.18,70,40,6.91,1631582091
saint-joseph,RE,-21.3667,55.6167,66.56,74,40,11.9,1631582092
wonthaggi,AU,-38.6044,145.5913,59.05,63,41,6.8,1631582092
jalu,LY,29.0331,21.5482,74.98,70,0,12.21,1631582092
littau,CH,47.05,8.2627,62.98,90,20,0.0,1631582093
coahuayana,MX,18.7333,-103.6833,78.28,95,100,2.33,1631582093
heihe,CN,50.2441,127.4902,52.38,80,99,4.43,1631582093
kandrian,PG,-6.2167,149.55,84.38,71,81,11.34,1631582093
boende,CD,-0.2167,20.8667,71.19,94,53,1.66,1631582094
lensk,RU,60.7253,114.9278,54.25,69,64,2.26,1631582094
alofi,NU,-19.0595,-169.9187,82.29,69,75,10.36,1631582094
khasan,RU,42.4308,130.6434,67.93,59,0,12.68,1631582095
paducah,US,37.0834,-88.6001,79.61,74,1,0.0,1631581546
bouca,CF,6.5105,18.2733,68.67,97,100,1.03,1631582095
shemgang,BT,27.2169,90.6579,62.87,78,68,3.69,1631581876
chulym,RU,55.0997,80.9572,40.66,69,100,11.43,1631582095
thai binh,VN,20.45,106.3333,84.2,84,100,5.86,1631582095
epe,NG,6.5841,3.9834,73.65,92,84,2.15,1631582096
sabang,ID,5.8933,95.3214,82.15,73,93,17.4,1631582096
mirnyy,RU,62.5353,113.9611,49.51,76,100,5.06,1631582096
doha,QA,25.2867,51.5333,89.58,51,0,8.05,1631582083
tra vinh,VN,9.9347,106.3453,79.72,87,82,11.14,1631582097
tiznit,MA,29.5833,-9.5,75.29,54,100,7.65,1631582097
boa vista,BR,2.8197,-60.6733,84.18,61,20,6.91,1631582097
pervomayskoye,RU,43.919,46.7102,63.37,71,6,4.18,1631582097
velizh,RU,55.6056,31.1967,48.07,96,100,7.72,1631582098
guanay,BO,-15.4975,-67.8797,77.16,72,65,0.74,1631582098
novorudnyy,RU,51.5026,58.1873,52.41,53,0,3.98,1631582098
sao miguel do araguaia,BR,-13.275,-50.1628,85.37,25,86,4.88,1631582099
san luis,AR,-33.295,-66.3356,44.15,61,56,14.07,1631582099
beloha,MG,-25.1667,45.05,69.04,54,16,5.21,1631582099
zirandaro,MX,18.45,-100.9833,74.14,96,100,1.45,1631582099
lata,PT,40.1629,-8.3327,66.07,96,13,2.82,1631582100
thinadhoo,MV,0.5333,72.9333,84.04,73,11,10.98,1631582100
te anau,NZ,-45.4167,167.7167,42.21,72,98,4.59,1631582100
tabas,IR,33.5959,56.9244,75.83,12,0,2.91,1631582101
port lincoln,AU,-34.7333,135.8667,55.89,60,31,9.42,1631582063
matara,LK,5.9485,80.5353,77.92,89,57,9.13,1631582101
weinan,CN,34.5036,109.5089,73.92,57,5,3.11,1631582103
simao,CN,22.7886,100.9748,69.01,94,100,1.05,1631582104
ketchikan,US,55.3422,-131.6461,54.07,94,90,13.8,1631582104
kota kinabalu,MY,5.9749,116.0724,80.58,78,20,5.75,1631582104
preston,GB,53.7667,-2.7167,60.75,34,100,7.85,1631582078
baft,IR,29.234,56.6057,62.91,26,0,4.61,1631582105
karaton,ID,-6.3424,106.1045,71.76,87,100,2.75,1631582105
obo,CF,5.3998,26.4869,66.42,98,98,3.6,1631581878
hualmay,PE,-11.0964,-77.6139,61.65,79,78,11.41,1631582105
likasi,CD,-10.9814,26.7333,67.14,46,100,2.55,1631582105
havoysund,NO,70.9963,24.6622,41.88,78,100,12.59,1631582106
whithorn,JM,18.2604,-78.0378,78.06,92,13,1.88,1631582106
iwaki,JP,37.05,140.8833,70.2,73,100,3.58,1631582106
saint-francois,FR,46.4154,3.9054,62.04,88,0,0.0,1631582107
mogadishu,SO,2.0371,45.3438,76.73,80,100,16.37,1631582107
biak,ID,-0.9131,122.8766,78.6,78,99,4.56,1631582107
puerto quijarro,BO,-17.7833,-57.7667,94.14,28,75,8.43,1631582107
chumikan,RU,54.7183,135.315,59.4,57,5,15.28,1631582108
drovyanaya,RU,51.5833,113.0333,53.11,62,100,4.14,1631582108
janow lubelski,PL,50.707,22.4104,60.22,85,100,4.29,1631582108
kingsville,US,27.5159,-97.8561,78.89,84,75,5.99,1631582108
vila velha,BR,-20.3297,-40.2925,75.15,83,0,14.97,1631582096
singaparna,ID,-7.3515,108.111,76.69,81,100,3.18,1631582109
betare oya,CM,5.6,14.0833,65.73,98,100,2.48,1631582109
nanpiao,CN,41.0982,120.7479,67.87,57,91,7.81,1631582109
poum,NC,-20.2333,164.0167,75.18,82,12,13.38,1631582110
sakakah,SA,29.9697,40.2064,77.59,26,0,8.23,1631582110
santa fe,AR,-31.6333,-60.7,63.01,81,0,8.01,1631582110
les cayes,HT,18.2,-73.75,79.36,82,3,3.44,1631582111
fuzhou,CN,26.0614,119.3061,88.47,61,4,3.31,1631582111
marrakesh,MA,31.6315,-8.0083,73.47,73,75,13.8,1631582111
williams lake,CA,52.1415,-122.1445,65.77,32,40,3.0,1631582111
lagoa,PT,39.05,-27.9833,69.13,84,15,14.14,1631582112
najran,SA,17.4924,44.1277,74.44,22,100,3.04,1631582112
tongliao,CN,43.6125,122.2653,68.41,53,6,6.71,1631582112
darnah,LY,32.767,22.6367,76.41,62,0,20.2,1631582112
mount isa,AU,-20.7333,139.5,76.77,14,90,13.8,1631582113
cockburn town,TC,21.4612,-71.1419,83.01,74,94,14.83,1631582113
bang saphan,TH,11.2126,99.5117,79.97,81,100,7.63,1631582113
jeremie,HT,18.65,-74.1167,80.85,79,3,2.04,1631582114
teahupoo,PF,-17.8333,-149.2667,75.16,77,74,16.67,1631582114
auki,SB,-8.7676,160.7034,86.63,62,30,5.46,1631582114
viedma,AR,-40.8135,-62.9967,46.31,34,46,4.65,1631582114
taseyevo,RU,57.2169,94.8978,44.69,65,20,6.91,1631582115
charters towers,AU,-20.1,146.2667,85.69,18,8,14.38,1631582115
fort nelson,CA,58.8053,-122.7002,63.99,39,75,2.3,1631582115
nueve de julio,AR,-35.4444,-60.8831,51.84,65,5,12.75,1631582116
antofagasta,CL,-23.65,-70.4,58.28,78,100,3.02,1631581934
port keats,AU,-14.25,129.55,89.49,47,14,3.31,1631582116
vestmanna,FO,62.1564,-7.1664,50.92,100,90,14.97,1631582116
bluffton,US,32.2371,-80.8604,78.94,83,20,0.0,1631581979
gigmoto,PH,13.7796,124.39,85.44,71,100,5.7,1631582116
port shepstone,ZA,-30.7414,30.455,62.4,80,6,4.43,1631582117
yatou,CN,37.15,122.3833,75.22,77,0,16.24,1631582117
dongsheng,CN,39.8161,109.9776,64.11,53,100,20.18,1631582117
portland,US,45.5234,-122.6762,76.15,48,20,3.0,1631582007
piopio,NZ,-38.4667,175.0167,62.44,62,92,0.27,1631582118
visnes,NO,59.3556,5.2242,52.21,87,76,5.75,1631582118
aldan,RU,58.6031,125.3894,54.23,71,20,8.14,1631582118
canon city,US,38.441,-105.2424,83.39,26,40,10.36,1631582012
kafue,ZM,-15.7691,28.1814,66.2,45,5,4.68,1631582119
turukhansk,RU,65.8167,87.9833,39.99,96,100,12.3,1631582119
dori,BF,14.0354,-0.0345,79.93,65,100,12.15,1631582119
cam ranh,VN,11.9214,109.1591,84.16,79,40,0.0,1631582120
yar-sale,RU,66.8333,70.8333,42.12,98,100,10.25,1631582120
aktau,KZ,43.65,51.2,64.98,34,7,9.13,1631582120
vila,PT,42.0304,-8.1588,56.34,94,5,4.05,1631582121
bucerias,MX,20.75,-105.3333,78.78,94,90,3.44,1631582071
kangaatsiaq,GL,68.3065,-53.4641,36.9,65,100,11.79,1631582121
kununurra,AU,-15.7667,128.7333,89.58,43,49,3.44,1631582121
sergeyevka,KZ,53.88,67.4158,49.37,78,100,6.58,1631582122
kjollefjord,NO,70.9457,27.3465,42.26,79,100,12.75,1631582122
arlit,NE,18.7369,7.3853,92.77,11,18,8.25,1631582122
maamba,ZM,-17.3667,27.15,68.0,32,4,2.98,1631582123
san cristobal,VE,7.7669,-72.225,73.58,88,7,2.68,1631582123
almeirim,BR,-1.5233,-52.5817,78.67,73,69,3.06,1631582123
bataipora,BR,-22.2953,-53.2711,83.1,32,1,6.06,1631582123
puerto asis,CO,0.5133,-76.5007,74.37,82,22,1.97,1631582124
warkworth,NZ,-36.4,174.6667,62.49,87,99,9.66,1631582124
normandin,CA,48.8333,-72.5321,55.71,62,100,6.91,1631582124
nhamunda,BR,-2.1861,-56.7131,78.55,71,95,2.28,1631582124
maceio,BR,-9.6658,-35.7353,76.44,100,75,2.3,1631581871
portobelo,PA,9.55,-79.65,77.86,85,100,1.95,1631582125
santa rosa,PH,14.3122,121.1114,87.12,77,36,4.94,1631581692
broome,US,42.2506,-75.833,66.7,77,40,1.01,1631582125
boguchany,RU,58.3814,97.4531,43.92,63,5,6.08,1631582125
maumere,ID,-8.6199,122.2111,82.96,70,47,2.62,1631582126
solwezi,ZM,-12.1688,26.3894,65.79,47,65,2.26,1631582126
palanga,LT,55.9175,21.0686,39.15,83,100,4.12,1631582126
vanavara,RU,60.34,102.2797,42.04,82,100,5.17,1631582126
ritchie,ZA,-29.038,24.6028,60.01,15,7,8.7,1631582127
wernberg,AT,46.6233,13.9607,61.5,88,100,2.26,1631582127
havre-saint-pierre,CA,50.2334,-63.5986,53.96,87,1,11.5,1631582127
