,City,Country,Latitude,Longitude,Max Temp,Humidity,Cloudiness,Wind Speed,Date
0,lebu,CL,-37.6167,-73.65,46.47,76,1,9.46,1631576906
1,kushiro,JP,42.975,144.3747,59.95,55,40,8.05,1631576906
2,hobart,AU,-42.8794,147.3294,51.26,71,20,1.99,1631576815
3,kavieng,PG,-2.5744,150.7967,84.36,72,87,15.46,1631576906
4,mataura,NZ,-46.1927,168.8643,45.48,77,86,0.51,1631576907
5,nizwa,OM,22.9333,57.5333,85.69,41,100,1.45,1631576907
6,bucak,TR,37.4592,30.595,64.92,75,39,2.62,1631576907
7,cidreira,BR,-30.1811,-50.2056,66.67,96,100,11.54,1631576908
8,tasiilaq,GL,65.6145,-37.6368,41.16,70,94,6.69,1631576908
9,qaanaaq,GL,77.484,-69.3632,19.92,73,31,7.99,1631576909
10,saskylakh,RU,71.9167,114.0833,44.65,84,64,3.31,1631576909
11,ukiah,US,39.1502,-123.2078,98.49,15,1,5.75,1631576910
12,bluff,NZ,-46.6,168.3333,45.81,55,87,4.18,1631576910
13,busselton,AU,-33.65,115.3333,52.52,76,1,6.93,1631576910
14,severo-kurilsk,RU,50.6789,156.125,49.68,90,100,33.87,1631576911
15,padang,ID,-0.9492,100.3543,76.96,81,100,2.82,1631576911
16,slave lake,CA,55.2834,-114.769,62.58,48,1,13.8,1631576911
17,kalmunai,LK,7.4167,81.8167,79.0,75,55,5.97,1631576911
18,labytnangi,RU,66.6572,66.4183,38.28,88,100,9.46,1631576912
19,mar del plata,AR,-38.0023,-57.5575,55.42,54,0,6.91,1631576876
20,beyneu,KZ,45.3167,55.2,69.1,38,41,13.22,1631576912
21,cape town,ZA,-33.9258,18.4232,54.01,76,0,3.0,1631576913
22,puerto carreno,CO,6.189,-67.4859,78.08,82,55,7.92,1631576913
23,tricase,IT,39.9304,18.3553,65.55,75,0,11.01,1631576913
24,bac lieu,VN,9.285,105.7244,77.23,86,100,14.14,1631576914
25,thompson,CA,55.7435,-97.8558,50.16,100,90,5.75,1631576898
26,banda aceh,ID,5.5577,95.3222,79.5,74,99,10.76,1631576914
27,vaini,TO,-21.2,-175.2,80.76,83,40,5.75,1631576914
28,santa cruz,BO,-17.8,-63.1667,86.05,51,20,20.71,1631576710
29,vigia del fuerte,CO,6.5789,-76.8863,74.1,96,76,0.45,1631576915
30,dakar,SN,14.6937,-17.4441,84.33,84,20,13.8,1631576804
31,hilo,US,19.7297,-155.09,83.93,69,75,9.22,1631576916
32,khatanga,RU,71.9667,102.5,44.37,66,54,8.25,1631576916
33,barrow,US,71.2906,-156.7887,41.02,87,90,13.8,1631576916
34,hermanus,ZA,-34.4187,19.2345,52.81,78,79,6.69,1631576916
35,port elizabeth,ZA,-33.918,25.5701,59.29,94,90,12.66,1631576917
36,mahebourg,MU,-20.4081,57.7,71.26,83,75,4.61,1631576917
37,butaritari,KI,3.0707,172.7902,82.47,77,46,16.33,1631576917
38,ancud,CL,-41.8697,-73.8203,45.93,78,58,7.11,1631576918
39,harper,LR,4.375,-7.7169,77.58,88,99,6.26,1631576918
40,punta arenas,CL,-53.15,-70.9167,44.71,81,75,13.8,1631576896
41,atikokan,CA,48.7555,-91.6216,61.47,59,89,4.79,1631576919
42,ushuaia,AR,-54.8,-68.3,40.66,81,40,29.93,1631576895
43,cabo san lucas,MX,22.8909,-109.9124,86.18,81,10,9.48,1631576753
44,aviles,ES,43.5547,-5.9248,67.17,94,40,3.44,1631576919
45,constitucion,CL,-35.3333,-72.4167,48.54,78,13,7.25,1631576784
46,cairns,AU,-16.9167,145.7667,83.1,61,6,8.05,1631576630
47,rikitea,PF,-23.1203,-134.9692,74.08,77,58,9.33,1631576920
48,tilichiki,RU,60.4667,166.1,46.54,52,30,4.97,1631576920
49,codrington,AU,-38.2667,141.9667,51.46,67,100,7.47,1631576920
50,leningradskiy,RU,69.3833,178.4167,30.43,67,8,4.88,1631576921
51,iqaluit,CA,63.7506,-68.5145,35.33,64,75,17.27,1631576734
52,ferme-neuve,CA,46.7001,-75.4493,56.98,76,96,4.03,1631576921
53,blythe,US,33.6103,-114.5964,111.65,9,75,9.22,1631576683
54,cap malheureux,MU,-19.9842,57.6142,71.47,76,71,10.0,1631576922
55,vanavara,RU,60.34,102.2797,39.02,90,100,3.78,1631576922
56,pasighat,IN,28.0667,95.3333,76.78,84,3,3.47,1631576922
57,tiksi,RU,71.6872,128.8694,44.06,86,100,2.68,1631576923
58,provideniya,RU,64.3833,-173.3,46.51,76,90,15.66,1631576923
59,vao,NC,-22.6667,167.4833,70.95,79,3,10.67,1631576923
60,bongouanou,CI,6.6486,-4.1992,71.64,99,89,2.28,1631576925
61,jamestown,US,42.097,-79.2353,65.52,95,90,3.0,1631576707
62,airai,TL,-8.9266,125.4092,70.9,54,80,3.53,1631576925
63,luorong,CN,24.4058,109.6086,81.14,72,66,4.43,1631576926
64,lakes entrance,AU,-37.8811,147.981,50.16,72,90,5.17,1631576926
65,hithadhoo,MV,-0.6,73.0833,83.53,74,8,12.59,1631576926
66,san quintin,MX,30.4833,-115.95,74.46,70,0,12.28,1631576927
67,los llanos de aridane,ES,28.6585,-17.9182,73.15,85,0,12.66,1631576927
68,kokkola,FI,63.8385,23.1307,46.92,68,0,17.27,1631576928
69,rio verde de mato grosso,BR,-18.9181,-54.8442,89.17,29,32,4.88,1631576928
70,saint-philippe,RE,-21.3585,55.7679,69.35,78,57,13.56,1631576929
71,enshi,CN,30.3,109.4833,69.75,83,22,1.34,1631576930
72,conakry,GN,9.538,-13.6773,78.13,85,99,9.55,1631576930
73,biak,ID,-0.9131,122.8766,75.29,87,100,3.38,1631576930
74,port alfred,ZA,-33.5906,26.891,64.98,83,98,17.29,1631576931
75,souillac,MU,-20.5167,57.5167,71.37,83,75,4.61,1631576931
76,ponta delgada,PT,37.7333,-25.6667,70.52,78,75,4.61,1631576931
77,dikson,RU,73.5069,80.5464,40.33,87,27,21.34,1631576932
78,norman wells,CA,65.282,-126.8329,59.04,55,20,5.75,1631576932
79,talnakh,RU,69.4865,88.3972,42.84,83,98,9.73,1631576932
80,pa sang,TH,18.5262,98.9394,74.62,99,100,0.83,1631576933
81,kosh-agach,RU,50.0,88.6667,30.06,58,0,1.72,1631576933
82,ponta do sol,PT,32.6667,-17.1,72.72,75,17,11.12,1631576934
83,salta,AR,-24.7859,-65.4117,75.49,45,0,3.0,1631576870
84,victoria,HK,22.2855,114.1577,87.85,85,94,2.01,1631576796
85,sisimiut,GL,66.9395,-53.6735,34.27,74,16,8.55,1631576934
86,klaksvik,FO,62.2266,-6.589,52.72,87,100,17.31,1631576935
87,heinola,FI,61.2056,26.0381,42.89,67,11,14.52,1631576935
88,tuktoyaktuk,CA,69.4541,-133.0374,44.6,81,75,8.05,1631576936
89,nanortalik,GL,60.1432,-45.2371,37.9,79,5,15.32,1631576936
90,shizunai,JP,42.3339,142.3669,60.96,54,90,4.83,1631576936
91,atuona,PF,-9.8,-139.0333,77.74,68,40,19.13,1631576937
92,anadyr,RU,64.75,177.4833,34.3,75,40,11.18,1631576937
93,lavrentiya,RU,65.5833,-171.0,44.74,82,100,15.95,1631576937
94,nikolskoye,RU,59.7035,30.7861,49.89,60,5,12.41,1631576938
95,kapaa,US,22.0752,-159.319,87.78,65,40,1.99,1631576938
96,ribeira grande,PT,38.5167,-28.7,71.67,93,51,8.3,1631576939
97,polunochnoye,RU,60.8697,60.4153,28.94,96,68,2.86,1631576939
98,longyearbyen,SJ,78.2186,15.6401,30.04,86,40,2.3,1631576939
99,baltiysk,RU,54.6538,19.911,58.98,89,94,4.38,1631576940
100,cherskiy,RU,68.75,161.3,45.03,61,90,4.25,1631576940
101,qaqortoq,GL,60.7167,-46.0333,37.9,64,0,4.18,1631576941
102,puerto lleras,CO,3.0223,-73.4044,75.63,83,0,2.84,1631576941
103,tuatapere,NZ,-46.1333,167.6833,45.82,61,82,1.43,1631576942
104,yellowknife,CA,62.456,-114.3525,54.12,100,75,5.75,1631576731
105,mount gambier,AU,-37.8333,140.7667,49.91,76,90,6.91,1631576942
106,comodoro rivadavia,AR,-45.8667,-67.5,57.06,30,0,14.97,1631576943
107,seoul,KR,37.5683,126.9778,71.04,85,0,5.75,1631576943
108,mangrol,IN,21.1167,70.1167,80.44,90,100,17.2,1631576943
109,kaitangata,NZ,-46.2817,169.8464,43.75,72,89,3.67,1631576944
110,cheney,US,47.4874,-117.5758,75.52,39,20,0.0,1631576906
111,trapani,IT,37.8333,12.6667,71.28,88,0,4.61,1631576944
112,pevek,RU,69.7008,170.3133,34.77,98,100,7.34,1631576945
113,douentza,ML,14.9951,-2.9517,79.11,68,95,12.5,1631576945
114,moron,AR,-34.6534,-58.6198,62.82,64,16,5.01,1631576945
115,skjervoy,NO,70.0311,20.9714,42.96,92,100,16.24,1631576946
116,necochea,AR,-38.5473,-58.7368,46.04,77,20,9.73,1631576946
117,tual,ID,-5.6667,132.75,80.98,81,49,12.91,1631576947
118,kiama,AU,-34.6833,150.8667,55.99,84,88,13.94,1631576947
119,sokol,RU,59.4617,40.1206,47.66,88,95,15.75,1631576947
120,kutum,SD,14.2,24.6667,75.38,63,78,5.95,1631576948
121,geraldton,AU,-28.7667,114.6,46.81,87,0,8.05,1631576948
122,champerico,GT,14.3,-91.9167,83.35,78,11,6.51,1631576948
123,torbay,CA,47.6666,-52.7314,59.68,81,90,17.27,1631576796
124,luanda,AO,-8.8368,13.2343,73.4,88,20,4.61,1631576949
125,fairbanks,US,64.8378,-147.7164,62.6,51,90,4.61,1631576754
126,grand gaube,MU,-20.0064,57.6608,71.38,76,73,7.0,1631576949
127,kieta,PG,-6.2167,155.6333,84.25,72,61,8.03,1631576950
128,kruisfontein,ZA,-34.0033,24.7314,53.89,96,100,1.81,1631576950
129,new norfolk,AU,-42.7826,147.0587,50.92,55,12,2.64,1631576950
130,bougouni,ML,11.417,-7.479,74.34,89,46,4.74,1631576951
131,upernavik,GL,72.7868,-56.1549,33.76,77,100,9.69,1631576951
132,turayf,SA,31.6725,38.6637,71.85,53,0,9.22,1631576952
133,lata,PT,40.1629,-8.3327,67.05,96,37,1.99,1631576952
134,nyurba,RU,63.2842,118.3319,52.18,76,85,6.24,1631576952
135,quatre cocos,MU,-20.2078,57.7625,71.1,75,56,16.71,1631576953
136,sao filipe,CV,14.8961,-24.4956,79.65,81,81,1.72,1631576751
137,svobodnyy,RU,51.4,128.1333,55.69,88,97,1.99,1631576953
138,chilca,PE,-12.5211,-76.7372,63.61,90,38,6.35,1631576953
139,adwa,ET,14.1646,38.8955,59.16,92,98,0.29,1631576954
140,kanigoro,ID,-8.13,112.219,77.11,84,86,0.63,1631576954
141,albany,US,42.6001,-73.9662,66.78,78,58,5.39,1631576801
142,isangel,VU,-19.55,169.2667,82.51,65,40,9.22,1631576955
143,sai buri,TH,6.7013,101.6168,77.05,86,100,4.52,1631576955
144,nakamura,JP,32.9833,132.9333,67.64,96,100,7.25,1631576956
145,marawi,PH,7.9986,124.2928,67.64,82,89,2.77,1631576956
146,kovur,IN,14.4833,79.9833,83.37,62,100,8.86,1631576956
147,charters towers,AU,-20.1,146.2667,82.56,24,32,12.48,1631576957
148,kirksville,US,40.1948,-92.5833,82.35,57,1,11.5,1631576957
149,bhagalpur,IN,25.25,87.0,78.35,90,100,13.6,1631576957
150,puerto ayora,EC,-0.7393,-90.3518,67.55,94,66,3.0,1631576958
151,goure,NE,13.9835,10.2704,76.01,65,95,10.07,1631576959
152,nishihara,JP,26.1842,127.7558,83.48,89,75,11.5,1631576959
153,chuy,UY,-33.6971,-53.4616,56.79,98,61,2.28,1631576959
154,pringsewu,ID,-5.3582,104.9744,72.34,97,100,1.28,1631576960
155,ubinskoye,RU,55.3068,79.6802,38.73,81,97,9.86,1631576960
156,uyemskiy,RU,64.4743,40.8524,48.25,81,90,13.42,1631576961
157,penzance,GB,50.1186,-5.5371,60.01,90,98,9.13,1631576961
158,jacqueville,CI,5.2052,-4.4146,76.91,91,51,9.48,1631576961
159,coxim,BR,-18.5067,-54.76,89.71,27,21,5.21,1631576962
160,ilulissat,GL,69.2167,-51.1,30.22,74,40,2.3,1631576962
161,makungu,TZ,-8.7333,35.2833,56.26,81,54,2.89,1631576963
162,marzuq,YE,14.4,46.4667,83.23,27,55,4.63,1631576963
163,tarko-sale,RU,64.9225,77.785,42.49,93,100,11.5,1631576963
164,san-pedro,CI,4.7485,-6.6363,75.31,95,62,4.61,1631576963
165,xining,CN,36.6167,101.7667,56.19,96,100,1.12,1631576964
166,cerritos,US,33.8583,-118.0648,103.48,49,1,3.0,1631576774
167,saldanha,ZA,-33.0117,17.9442,51.85,77,5,15.3,1631576964
168,ishim,RU,56.1128,69.4902,38.07,62,59,1.25,1631576965
169,bandarbeyla,SO,9.4942,50.8122,77.43,77,11,24.74,1631576965
170,inuvik,CA,68.3499,-133.7218,52.56,71,75,9.22,1631576965
171,fort collins,US,40.5853,-105.0844,85.57,34,1,1.01,1631576966
172,beringovskiy,RU,63.05,179.3167,35.31,72,86,17.72,1631576966
173,aykhal,RU,66.0,111.5,46.02,77,67,6.76,1631576967
174,asau,RO,46.4333,26.4,60.76,66,8,3.49,1631576967
175,bilibino,RU,68.0546,166.4372,35.49,100,98,2.91,1631576967
176,mutis,CO,6.2262,-77.4044,77.99,85,69,4.23,1631576968
177,bambous virieux,MU,-20.3428,57.7575,71.22,83,75,4.61,1631576968
178,sitka,US,57.0531,-135.33,55.29,88,90,5.75,1631576887
179,sorong,ID,-0.8833,131.25,81.63,78,85,6.67,1631576969
180,cockburn town,TC,21.4612,-71.1419,76.96,78,75,9.22,1631576757
181,pangnirtung,CA,66.1451,-65.7125,34.27,72,13,6.2,1631576969
182,pascagoula,US,30.3658,-88.5561,82.45,88,100,7.99,1631576970
183,salalah,OM,17.0151,54.0924,80.69,89,75,2.3,1631576970
184,lagoa,PT,39.05,-27.9833,69.48,86,52,14.61,1631576970
185,havre-saint-pierre,CA,50.2334,-63.5986,55.76,94,75,10.36,1631576971
186,tahta,EG,26.7693,31.5021,86.11,31,0,5.06,1631576971
187,methoni,GR,36.8197,21.7049,62.46,59,22,8.79,1631576971
188,altamira,BR,-3.2033,-52.2064,83.43,54,77,6.42,1631576971
189,taltal,CL,-25.4,-70.4833,60.01,69,79,4.07,1631576972
190,gigmoto,PH,13.7796,124.39,83.55,80,100,5.14,1631576972
191,bethel,US,41.3712,-73.414,76.93,76,1,3.44,1631576973
192,carutapera,BR,-1.195,-46.02,78.3,83,10,7.31,1631576973
193,andenes,NO,69.3143,16.1194,44.58,70,40,9.22,1631576973
194,arbazh,RU,57.6804,48.3065,57.33,86,100,11.34,1631576974
195,abha,SA,18.2164,42.5053,66.02,59,0,0.0,1631576974
196,wilmington,US,34.2257,-77.9447,80.85,71,0,6.4,1631576828
197,candido mota,BR,-22.7464,-50.3869,84.02,23,41,8.39,1631576975
198,trelleborg,SE,55.3751,13.1569,60.21,83,61,8.21,1631576976
199,clyde river,CA,70.4692,-68.5914,34.03,64,20,8.05,1631576976
200,chokurdakh,RU,70.6333,147.9167,46.29,58,89,3.0,1631576977
201,hambantota,LK,6.1241,81.1185,79.25,85,86,15.46,1631576977
202,margate,GB,51.3813,1.3862,64.11,89,100,13.11,1631576977
203,richards bay,ZA,-28.783,32.0377,63.48,92,2,2.21,1631576978
204,mitu,CO,1.1983,-70.1733,75.22,84,62,0.98,1631576978
205,grindavik,IS,63.8424,-22.4338,48.15,81,75,26.46,1631576979
206,taksimo,RU,56.3444,114.8794,49.68,83,28,2.46,1631576980
207,jardim,BR,-21.4803,-56.1381,91.22,29,34,9.35,1631576980
208,dzhebariki-khaya,RU,62.2167,135.8,57.16,51,61,3.56,1631576980
209,castro,BR,-24.7911,-50.0119,69.96,42,66,4.14,1631576981
210,zhaozhou,CN,45.6833,125.3167,59.81,77,35,5.06,1631576981
211,sinazongwe,ZM,-17.2614,27.4618,71.91,35,6,2.89,1631576982
212,betlitsa,RU,54.0095,33.9588,52.27,96,42,7.31,1631576982
213,aitape,PG,-3.1374,142.3475,83.91,68,99,0.43,1631576983
214,livingstonia,MW,-10.606,34.1063,62.55,69,64,0.89,1631576983
215,fortuna,US,40.5982,-124.1573,66.85,67,20,1.01,1631576984
216,saint-joseph,RE,-21.3667,55.6167,68.36,76,41,12.46,1631576984
217,vallenar,CL,-28.5708,-70.7581,62.31,39,0,2.24,1631576711
218,ola,RU,59.5833,151.2833,52.39,47,0,0.69,1631576985
219,kuopio,FI,62.8924,27.677,44.55,65,75,26.46,1631576985
220,moree,AU,-29.4667,149.85,51.82,62,1,13.8,1631576985
221,hasaki,JP,35.7333,140.8333,73.8,64,98,7.56,1631576986
222,bambanglipuro,ID,-7.95,110.2833,78.15,86,96,4.16,1631576986
223,artyom,AZ,40.4723,50.333,71.74,77,0,20.38,1631576987
224,gulu,UG,2.7746,32.299,63.73,92,84,0.96,1631576987
225,zabol,AF,32.25,67.25,63.03,21,0,4.81,1631576987
226,alcaniz,ES,41.05,-0.1333,75.09,60,100,4.0,1631576987
227,avarua,CK,-21.2078,-159.775,78.85,65,20,13.8,1631576988
228,esperance,AU,-33.8667,121.9,49.84,71,0,10.18,1631576988
229,marsh harbour,BS,26.5412,-77.0636,83.1,72,7,11.7,1631576989
230,east london,ZA,-33.0153,27.9116,65.5,76,100,14.81,1631576989
231,kamien pomorski,PL,53.9685,14.7726,57.56,82,6,5.95,1631576989
232,opuwo,NA,-18.0607,13.84,66.13,39,0,4.9,1631576990
233,lubango,AO,-14.9172,13.4925,61.75,47,12,2.86,1631576773
234,coquimbo,CL,-29.9533,-71.3436,58.73,67,0,9.22,1631576990
235,sulangan,PH,11.1373,123.7228,83.14,71,99,3.8,1631576991
236,nemuro,JP,43.3236,145.575,59.43,68,33,14.81,1631576991
237,vanimo,PG,-2.6741,141.3028,83.44,70,100,2.39,1631576992
238,sinnamary,GF,5.3833,-52.95,77.52,89,10,6.69,1631576992
239,sorland,NO,67.667,12.6934,47.66,67,78,13.15,1631576993
240,carauari,BR,-4.8828,-66.8958,78.51,72,58,1.61,1631576993
241,saint-georges,GD,12.0564,-61.7485,82.08,78,20,8.05,1631576993
242,bengkulu,ID,-3.8004,102.2655,73.58,81,100,5.59,1631576994
243,nantucket,US,41.2835,-70.0995,71.02,84,1,5.75,1631576732
244,burnie,AU,-41.0667,145.9167,50.22,60,59,3.18,1631576994
245,meadow lake,US,34.8014,-106.5436,92.17,17,0,5.01,1631576898
246,palmer,US,42.1584,-72.3287,71.31,68,20,8.05,1631576995
247,san ramon,US,37.7799,-121.978,97.03,35,1,10.36,1631576995
248,totness,SR,5.8833,-56.3167,79.12,82,12,8.61,1631576995
249,shadrinsk,RU,56.0852,63.6335,48.6,84,98,5.75,1631576996
250,rawson,AR,-43.3002,-65.1023,50.7,38,30,1.43,1631576996
251,uruacu,BR,-14.5247,-49.1408,84.7,19,53,4.23,1631576996
252,uren,RU,57.4552,45.7852,55.31,89,86,10.54,1631576997
253,kristinehamn,SE,59.3098,14.1081,44.58,77,99,3.85,1631576997
254,brae,GB,60.3964,-1.353,53.51,84,90,11.16,1631576998
255,georgetown,MY,5.4112,100.3354,77.9,91,40,2.3,1631576998
256,baruun-urt,MN,46.6806,113.2792,55.35,47,96,4.47,1631576999
257,san cristobal,VE,7.7669,-72.225,67.87,87,17,3.09,1631576999
258,arraial do cabo,BR,-22.9661,-42.0278,73.36,94,0,16.11,1631577000
259,ostrovnoy,RU,68.0531,39.5131,41.76,83,93,18.54,1631577000
260,hami,CN,42.8,93.45,67.53,32,36,5.37,1631577000
261,northam,GB,51.0333,-4.2167,61.09,95,100,5.37,1631577001
262,rietavas,LT,55.7194,21.9311,44.42,94,93,4.23,1631577003
263,waki,JP,34.0667,134.15,69.22,94,100,2.53,1631577003
264,yar-sale,RU,66.8333,70.8333,42.71,98,100,10.74,1631577004
265,bhabua,IN,25.05,83.6167,78.58,90,63,14.63,1631577004
266,fengzhen,CN,40.4394,113.1536,63.36,76,100,5.48,1631577005
267,saint-pierre,RE,-21.3393,55.4781,69.44,78,0,3.44,1631577005
268,saint george,US,37.1041,-113.5841,101.62,11,1,8.01,1631577006
269,channel-port aux basques,CA,47.5702,-59.1367,57.47,81,50,15.12,1631577006
270,yuancheng,CN,36.652,107.7896,61.9,65,92,13.71,1631577007
271,balotra,IN,25.8333,72.2333,85.15,71,7,7.74,1631577007
272,dire dawa,ET,9.5931,41.8661,71.15,62,10,12.93,1631577007
273,finschhafen,PG,-6.6024,147.8681,83.01,72,100,9.42,1631577008
274,flinders,AU,-34.5833,150.8552,56.21,84,74,13.18,1631577008
275,goundam,ML,16.4145,-3.6708,91.45,37,26,16.06,1631577009
276,kirakira,SB,-10.4544,161.9205,84.74,70,34,10.96,1631577009
277,kununurra,AU,-15.7667,128.7333,80.58,61,65,4.61,1631577009
278,namibe,AO,-15.1961,12.1522,64.29,88,82,6.71,1631577010
279,byron bay,AU,-28.65,153.6167,71.06,39,9,11.05,1631577010
280,xapuri,BR,-10.6517,-68.5044,92.05,52,63,3.76,1631577011
281,pangai,TO,-19.8,-174.35,80.71,74,20,8.05,1631577011
282,acapulco,MX,16.8634,-99.8901,78.3,86,98,4.76,1631576949
283,vila velha,BR,-20.3297,-40.2925,75.15,83,0,13.8,1631577012
284,yulara,AU,-25.2406,130.9889,60.64,20,24,14.97,1631577012
285,matara,LK,5.9485,80.5353,77.23,91,74,9.04,1631577013
286,marfino,RU,55.7028,37.3822,59.25,82,75,15.66,1631577013
287,san borja,BO,-14.8167,-66.85,88.95,38,50,6.98,1631577013
288,lorengau,PG,-2.0226,147.2712,81.09,80,97,7.54,1631577014
289,porbandar,IN,21.6422,69.6093,80.42,90,100,15.68,1631577014
290,leh,IN,34.1667,77.5833,52.39,52,28,4.16,1631577015
291,bara,NG,10.3744,10.7288,73.02,95,98,10.22,1631577015
292,bredasdorp,ZA,-34.5322,20.0403,54.72,76,100,1.14,1631577015
293,eureka,US,40.8021,-124.1637,67.12,70,46,4.0,1631577016
294,nsanje,MW,-16.92,35.262,74.07,67,44,3.85,1631576830
295,khandyga,RU,62.6667,135.6,56.21,53,79,3.18,1631577016
296,besikduzu,TR,41.052,39.2284,73.29,86,57,3.85,1631577017
297,samarinda,ID,-0.5,117.15,78.1,90,100,2.06,1631577017
298,neenah,US,44.1858,-88.4626,66.34,83,70,10.42,1631577018
299,maningrida,AU,-12.0667,134.2667,82.92,62,33,6.29,1631577018
300,zhigansk,RU,66.7697,123.3711,47.84,94,100,7.4,1631577019
301,mahenge,TZ,-8.6833,36.7167,59.36,77,30,3.24,1631577019
302,rochester,US,43.1548,-77.6156,68.14,75,90,4.61,1631576632
303,komsomolskiy,UZ,40.4272,71.7189,62.02,29,0,3.02,1631577020
304,stornoway,GB,58.2093,-6.3865,53.92,100,90,0.0,1631577020
305,oranjestad,AW,12.524,-70.027,84.15,79,20,13.8,1631577020
306,shimoda,JP,34.6667,138.95,77.36,87,100,10.09,1631577020
307,manokwari,ID,-0.8667,134.0833,82.04,69,92,1.5,1631577021
308,ternovka,RU,51.678,41.6375,63.64,56,89,11.99,1631577022
309,neustrelitz,DE,53.3667,13.0833,57.43,75,49,1.81,1631577022
310,carnarvon,AU,-24.8667,113.6333,53.67,76,0,8.05,1631577022
311,noumea,NC,-22.2763,166.4572,80.58,69,3,8.68,1631577022
312,itacare,BR,-14.2775,-38.9967,76.89,84,3,4.45,1631577023
313,kavaratti,IN,10.5669,72.642,81.37,80,100,21.56,1631577023
314,wanning,CN,18.8003,110.3967,82.18,89,75,8.59,1631577024
315,laizhou,CN,37.1717,119.9214,73.33,81,0,13.18,1631577024
316,lompoc,US,34.6391,-120.4579,89.78,75,1,14.97,1631577025
317,okhotsk,RU,59.3833,143.3,59.54,53,7,3.0,1631577025
318,suntar,RU,62.1444,117.6319,51.46,66,64,5.68,1631577025
319,praya,CV,14.9215,-23.5087,81.14,78,20,2.3,1631577026
320,ternate,ID,0.8,127.4,80.49,81,100,3.33,1631577026
321,narsaq,GL,60.9167,-46.05,38.43,55,0,4.88,1631577026
322,falmouth,GB,50.1544,-5.0711,59.9,100,100,5.99,1631577027
323,katherine,AU,-14.4667,132.2667,86.32,62,61,8.05,1631577027
324,san pedro,PH,14.35,121.0167,84.09,87,20,0.0,1631577028
325,vasto,IT,42.1243,14.7059,57.56,50,11,3.36,1631577028
326,aklavik,CA,68.2191,-135.0107,52.52,64,97,11.56,1631577028
327,sainte-marie,RE,-20.8968,55.5496,69.93,73,75,16.11,1631577029
328,beloha,MG,-25.1667,45.05,69.73,55,65,5.82,1631577029
329,greenville,US,35.6127,-77.3663,82.42,76,1,0.0,1631577029
330,port hueneme,US,34.1478,-119.1951,99.64,76,90,11.5,1631577030
331,soyo,AO,-6.1349,12.3689,73.87,89,49,4.94,1631577030
332,mumford,GH,5.2618,-0.759,75.69,92,100,10.29,1631577030
333,viedma,AR,-40.8135,-62.9967,46.4,34,54,1.23,1631577031
334,sambava,MG,-14.2667,50.1667,68.77,88,47,10.83,1631577031
335,itoman,JP,26.1247,127.6694,84.22,87,75,18.41,1631577032
336,concordia,AR,-31.393,-58.0209,62.96,89,91,12.12,1631577032
337,kodiak,US,57.79,-152.4072,51.57,75,99,17.81,1631577032
338,college,US,64.8569,-147.8028,62.58,51,90,0.0,1631577033
339,maymyo,MM,22.0333,96.4667,67.37,97,14,1.45,1631577033
340,ubatuba,BR,-23.4339,-45.0711,83.73,74,64,3.06,1631577033
341,antofagasta,CL,-23.65,-70.4,58.28,83,98,4.94,1631576798
342,kloulklubed,PW,7.0419,134.2556,84.51,73,99,12.41,1631577034
343,paragominas,BR,-2.9667,-47.4833,79.02,69,65,7.4,1631577034
344,abu samrah,SY,35.3029,37.1841,69.87,58,0,5.77,1631577035
345,chikhli,IN,20.35,76.25,72.23,94,100,8.88,1631577035
346,waipawa,NZ,-41.4122,175.5153,49.46,87,84,11.34,1631577036
347,rudnichnyy,RU,59.617,52.4703,48.52,99,100,6.35,1631577036
348,gannan,CN,47.9147,123.5031,55.99,89,71,7.83,1631577037
349,dunedin,NZ,-45.8742,170.5036,43.81,72,96,4.0,1631577037
350,samarai,PG,-10.6167,150.6667,81.09,80,94,9.51,1631577037
351,plettenberg bay,ZA,-34.0527,23.3716,54.99,90,100,3.53,1631577038
352,warmbad,NA,-28.45,18.7333,55.4,49,65,7.34,1631577038
353,coihaique,CL,-45.5752,-72.0662,44.55,61,75,5.75,1631577039
354,ladario,BR,-19.0047,-57.6017,93.31,27,95,4.88,1631577039
355,amahai,ID,-3.3333,128.9167,81.37,78,96,2.06,1631577040
356,gafanha da encarnacao,PT,40.6181,-8.733,68.05,93,19,7.63,1631577040
357,hutchinson,US,38.0608,-97.9298,91.53,34,1,1.99,1631576967
358,port hedland,AU,-20.3167,118.5667,69.85,83,4,3.44,1631577041
359,ovalle,CL,-30.5983,-71.2003,55.98,59,0,2.55,1631577041
360,rio gallegos,AR,-51.6226,-69.2181,46.45,61,75,13.8,1631577041
361,mayor pablo lagerenza,PY,-19.9309,-60.7718,98.2,21,55,14.47,1631577042
362,port blair,IN,11.6667,92.75,81.88,81,100,15.14,1631577042
363,maku,IR,39.2911,44.4521,64.13,40,0,2.1,1631577042
364,manono,CD,-7.3,27.4167,77.0,45,28,2.1,1631577043
365,zhezkazgan,KZ,47.8043,67.7144,51.96,29,7,7.31,1631577043
366,naivasha,KE,-0.7167,36.4359,53.65,86,38,3.13,1631577043
367,tura,IN,25.5198,90.2201,73.54,97,100,5.41,1631577044
368,castel san giovanni,IT,45.0583,9.4335,72.57,52,92,2.91,1631577044
369,chibuto,MZ,-24.6867,33.5306,63.07,83,0,7.07,1631577044
370,churapcha,RU,62.0025,132.4325,56.93,54,100,5.28,1631577045
371,sistranda,NO,63.7256,8.834,49.89,66,100,5.59,1631577045
372,sainte-thecle,CA,46.8168,-72.4991,62.64,63,96,7.67,1631577045
373,jamame,SO,0.0722,42.7506,75.02,85,57,11.18,1631577046
374,shubarkuduk,KZ,49.1447,56.4872,57.06,52,95,9.31,1631577046
375,roma,US,43.2128,-75.4557,66.34,75,1,5.75,1631577046
376,katsuura,JP,35.1333,140.3,75.24,64,100,11.05,1631577047
377,paamiut,GL,61.994,-49.6678,37.38,65,2,23.22,1631577047
378,strezhevoy,RU,60.7333,77.5889,37.38,98,100,13.94,1631577048
379,mitzic,GA,0.7821,11.549,67.44,99,73,2.75,1631577048
380,vila franca do campo,PT,37.7167,-25.4333,70.21,84,35,5.46,1631577049
381,neuquen,AR,-38.9516,-68.0591,55.29,30,0,17.27,1631577049
382,nampa,US,43.5407,-116.5635,81.25,29,1,10.36,1631577049
383,tessalit,ML,20.1986,1.0114,95.81,16,89,3.78,1631577050
384,mackenzie,CA,55.2999,-123.1698,59.22,51,90,6.91,1631577050
385,bubaque,GW,11.2833,-15.8333,79.66,81,100,7.67,1631577050
386,xuddur,SO,4.1213,43.8894,71.2,63,87,16.89,1631577051
387,tazovskiy,RU,67.4667,78.7,42.44,97,100,8.03,1631577051
388,arica,CL,-18.475,-70.3042,60.35,82,90,5.75,1631577052
389,dingle,PH,10.9995,122.6711,80.87,83,92,3.53,1631577052
390,pangody,RU,65.85,74.4859,41.9,89,100,6.64,1631577052
391,denpasar,ID,-8.65,115.2167,80.26,94,20,11.5,1631577053
392,naze,JP,28.3667,129.4833,81.52,84,97,18.79,1631577053
393,sombrerete,MX,23.6333,-103.65,66.78,54,86,6.98,1631577054
394,zhanaozen,KZ,43.3,52.8,70.57,29,6,15.59,1631577054
395,alakurtti,RU,66.9672,30.3491,37.63,97,100,13.18,1631577054
396,hofn,IS,64.2539,-15.2082,50.68,72,70,30.02,1631577055
397,shache,CN,38.4167,77.2406,65.88,34,24,2.71,1631577055
398,vidim,RU,56.4088,103.1106,43.39,92,100,2.77,1631577056
399,caravelas,BR,-17.7125,-39.2481,74.14,84,0,8.84,1631577056
400,srednekolymsk,RU,67.45,153.6833,53.71,56,100,8.1,1631577056
401,kirovskiy,RU,45.0917,133.5136,52.36,93,98,2.37,1631577057
402,havoysund,NO,70.9963,24.6622,41.88,77,100,11.54,1631577057
403,kaspiyskiy,RU,45.3929,47.3707,64.54,70,27,7.63,1631577058
404,tandlianwala,PK,31.0333,73.1333,81.37,63,0,4.56,1631577058
405,pimentel,PE,-6.8367,-79.9342,62.89,77,0,24.16,1631577059
406,chicama,PE,-7.8447,-79.1469,59.54,82,27,8.19,1631577059
407,rangpo,IN,27.1833,88.5333,73.4,91,91,2.44,1631577060
408,yabelo,ET,4.8833,38.0833,60.76,59,73,7.47,1631577060
409,ko samui,TH,9.5357,99.9357,81.61,79,91,17.05,1631577060
410,pacifica,US,37.6138,-122.4869,95.94,76,20,3.0,1631577061
411,shingu,JP,33.7333,135.9833,73.9,87,100,5.19,1631577061
412,gorgan,IR,36.8387,54.4348,76.96,78,75,0.0,1631577061
413,irbil,IQ,36.1926,44.0106,75.02,31,0,2.3,1631577062
414,ngunguru,NZ,-35.6167,174.5,62.17,86,76,6.44,1631577062
415,koslan,RU,63.4564,48.8989,41.68,79,99,12.24,1631577062
416,luebo,CD,-5.35,21.4167,74.48,66,24,1.57,1631577063
417,oistins,BB,13.0667,-59.5333,80.69,83,40,4.61,1631577063
418,cayenne,GF,4.9333,-52.3333,82.09,81,0,1.99,1631577064
419,gat,IL,31.61,34.7642,80.4,65,0,4.68,1631577064
420,usinsk,RU,65.9939,57.5281,32.54,90,10,5.39,1631577064
421,valparaiso,CL,-33.0393,-71.6273,56.84,62,0,9.22,1631577065
422,kilgore,US,32.3863,-94.8758,84.16,69,20,8.05,1631577065
423,pacific grove,US,36.6177,-121.9166,92.16,78,1,5.99,1631577062
424,dolores,AR,-36.3132,-57.6792,50.77,69,4,15.95,1631577066
425,boa vista,BR,2.8197,-60.6733,89.58,48,20,5.75,1631577066
426,bagotville,AU,-28.9833,153.4167,65.64,44,12,7.49,1631577067
427,derzhavinsk,KZ,51.1,66.3167,52.56,43,9,10.42,1631577067
428,baikunthpur,IN,23.25,82.55,74.05,92,99,13.67,1631577068
429,santo tomas,PH,14.1079,121.1414,83.32,81,95,3.83,1631577068
430,puerto baquerizo moreno,EC,-0.9,-89.6,69.01,86,49,11.88,1631577068
431,baykalsk,RU,51.5058,104.1469,53.29,95,100,2.15,1631577069
432,faanui,PF,-16.4833,-151.75,78.4,75,8,13.15,1631577069
433,plouzane,FR,48.3833,-4.6167,64.49,94,100,6.91,1631577069
434,upata,VE,8.0086,-62.3989,83.19,74,41,3.47,1631577070
435,alice springs,AU,-23.7,133.8833,62.15,23,5,14.97,1631576786
436,osypenko,UA,46.9136,36.8253,62.24,78,3,2.71,1631577070
437,paredon,MX,16.0333,-93.8667,81.36,78,99,4.43,1631577071
438,roald,NO,62.5833,6.1333,51.17,93,100,4.61,1631577071
439,tezu,IN,27.9167,96.1667,77.05,73,2,4.29,1631577072
440,rantepao,ID,-2.9701,119.8978,72.18,88,97,2.21,1631577072
441,henties bay,NA,-22.116,14.2845,53.85,92,3,7.76,1631577073
442,semirom,IR,31.4167,51.5667,57.67,22,0,2.26,1631577073
443,singapore,SG,1.2897,103.8501,80.55,88,75,4.61,1631576900
444,khaniotis,GR,39.9991,23.58,76.42,50,69,5.3,1631577073
445,sabha,LY,27.0377,14.4283,79.5,31,0,13.18,1631577074
446,mikhaylovka,RU,50.06,43.2379,62.82,54,99,4.76,1631577074
447,morros,BR,-9.4467,-46.3003,82.36,21,16,6.58,1631577074
448,buala,SB,-8.145,159.5921,84.85,70,80,10.8,1631577075
449,bosaso,SO,11.2842,49.1816,92.57,40,21,15.21,1631577075
450,ribas do rio pardo,BR,-20.4431,-53.7592,89.96,24,54,4.21,1631577075
451,asfi,MA,32.2994,-9.2372,70.99,87,100,10.74,1631577076
452,salina,US,38.8403,-97.6114,91.53,39,1,4.0,1631577077
453,portland,US,45.5234,-122.6762,77.38,47,20,1.01,1631576316
454,huambo,AO,-12.7761,15.7392,65.28,43,54,3.8,1631577078
455,khani,GE,41.9563,42.9566,60.37,94,90,2.71,1631577078
456,blackwater,AU,-23.5833,148.8833,72.36,19,2,11.68,1631577079
457,auki,SB,-8.7676,160.7034,85.93,64,38,5.37,1631577079
458,touros,BR,-5.1989,-35.4608,77.9,80,3,14.43,1631577080
459,varnamo,SE,57.186,14.04,52.11,75,48,1.14,1631577080
460,maarianhamina,AX,60.0973,19.9348,46.26,81,0,3.44,1631577080
461,mogadishu,SO,2.0371,45.3438,76.91,80,100,17.52,1631577081
462,mangan,IN,27.5167,88.5333,72.91,82,95,2.44,1631577081
463,zunyi,CN,27.6867,106.9072,69.84,88,99,3.69,1631577081
464,leshukonskoye,RU,64.8989,45.7622,39.4,76,100,11.95,1631577081
465,kidal,ML,18.4411,1.4078,87.96,36,55,7.25,1631577082
466,santa rosa,PH,14.3122,121.1114,84.85,80,93,4.88,1631577082
467,bundaberg,AU,-24.85,152.35,72.21,28,0,5.99,1631576885
468,guerrero negro,MX,27.9769,-114.0611,77.59,70,4,16.22,1631577083
469,jieshi,CN,22.8134,115.8257,84.65,77,83,4.5,1631577083
470,ahar,IR,38.4774,47.0699,57.6,65,0,2.71,1631577083
471,mersing,MY,2.4312,103.8405,75.11,94,100,4.61,1631577084
472,arman,RU,59.7,150.1667,55.69,44,0,0.92,1631577084
473,primo tapia,MX,32.22,-116.9172,93.4,55,5,9.98,1631577085
474,chumikan,RU,54.7183,135.315,56.3,61,2,15.28,1631577085
475,hualmay,PE,-11.0964,-77.6139,61.97,79,24,11.97,1631577085
476,camargo,MX,27.6667,-105.1667,86.81,22,0,3.49,1631577086
477,phan thiet,VN,10.9333,108.1,78.85,89,100,5.46,1631577086
478,sola,VU,-13.8833,167.55,79.7,78,27,16.82,1631577086
479,xiongzhou,CN,25.1167,114.3,82.13,72,29,3.47,1631577087
480,luderitz,NA,-26.6481,15.1594,52.83,76,0,12.71,1631577087
481,lohja,FI,60.2486,24.0653,48.47,77,100,10.38,1631577087
482,launceston,AU,-41.45,147.1667,50.81,73,14,1.99,1631577088
483,kuching,MY,1.55,110.3333,75.42,100,40,1.14,1631577088
484,san patricio,US,28.017,-97.5169,81.32,83,100,20.51,1631577089
485,jafarpur,IN,22.3208,88.2306,82.38,96,100,11.88,1631577089
486,talcahuano,CL,-36.7167,-73.1167,51.48,76,20,5.75,1631577089
487,ahipara,NZ,-35.1667,173.1667,61.02,88,100,11.81,1631577090
488,ayer tawar,MY,4.2954,100.7548,76.95,94,20,0.0,1631577090
489,lincoln,US,40.8,-96.667,87.13,52,1,1.01,1631576931
490,saint-leu,RE,-21.15,55.2833,68.83,73,30,2.48,1631577090
491,asmar,AF,35.0333,71.3581,72.54,75,0,3.58,1631577091
492,waterloo,CA,43.4668,-80.5164,66.25,72,40,4.61,1631576860
493,battle creek,US,42.3212,-85.1797,80.65,73,20,6.91,1631576941
494,lethem,GY,3.3803,-59.7968,80.11,68,70,1.68,1631577091
495,salard,RO,47.2167,22.05,64.38,59,63,2.48,1631577091
496,morwell,AU,-38.2333,146.4,49.05,95,77,4.47,1631577092
497,bemidji,US,47.4736,-94.8803,65.14,92,90,3.44,1631576816
498,sao joao da barra,BR,-21.6403,-41.0511,73.83,87,0,21.7,1631577087
499,port moresby,PG,-9.4431,147.1797,83.62,79,75,5.75,1631577092
500,chenzhou,CN,25.8,113.0333,77.79,78,2,2.84,1631577092
501,umea,SE,63.8284,20.2597,42.91,75,43,12.66,1631577092
502,rayadrug,IN,14.7,76.8667,73.24,82,100,18.03,1631577093
503,ulaangom,MN,49.9811,92.0667,46.36,64,0,4.83,1631577093
504,tongchuan,CN,35.0806,109.0897,66.76,70,5,6.26,1631577094
505,cessnock,AU,-32.8333,151.35,56.34,78,90,9.82,1631577094
506,mitoc,RO,48.1,27.0333,68.09,90,74,6.76,1631577094
507,bakel,SN,14.905,-12.4568,85.1,70,88,10.78,1631577095
508,shuangcheng,CN,45.35,126.2833,55.08,85,80,2.91,1631577095
509,moses lake,US,47.1301,-119.2781,77.68,31,1,6.91,1631577095
510,asyut,EG,27.181,31.1837,86.18,35,0,6.78,1631577095
511,mustafakemalpasa,TR,40.0353,28.4117,61.25,83,83,0.76,1631577096
512,broken hill,AU,-31.95,141.4333,51.51,54,11,6.91,1631577096
513,natal,BR,-5.795,-35.2094,77.65,94,75,5.75,1631576990
514,tambovka,RU,50.0969,128.0489,51.91,83,89,3.8,1631577096
515,tigil,RU,57.8,158.6667,50.97,47,0,9.15,1631577097
516,kumertau,RU,52.7667,55.7833,57.38,40,99,9.08,1631577097
517,robertsport,LR,6.7533,-11.3686,80.26,82,96,7.7,1631577098
518,alta floresta,BR,-9.8756,-56.0861,75.76,76,66,5.14,1631577098
519,pangkalanbuun,ID,-2.6833,111.6167,76.55,88,96,4.05,1631577098
520,nawada,IN,24.8833,85.5333,80.89,87,89,16.28,1631577098
521,luoyang,CN,34.6836,112.4536,73.6,81,0,3.53,1631577099
522,acari,PE,-15.4311,-74.6158,64.45,78,62,4.76,1631577099
523,juarez,MX,31.7333,-106.4833,94.64,16,1,1.99,1631577082
524,tanete,ID,-3.9443,119.7848,78.35,89,81,7.85,1631577100
525,haines junction,CA,60.7522,-137.5108,60.75,21,98,8.05,1631577100
526,tarija,BO,-21.5355,-64.7296,71.51,46,75,6.91,1631577101
527,providencia,MX,28.7167,-111.5833,98.85,59,0,11.99,1631577101
528,poum,NC,-20.2333,164.0167,75.16,83,9,14.72,1631577102
529,kaya,BF,13.0917,-1.0844,77.0,77,91,4.83,1631577102
530,linhares,BR,-19.3911,-40.0722,72.86,84,0,7.38,1631577102
531,rocha,UY,-34.4833,-54.3333,57.06,99,66,4.12,1631577103
532,cabedelo,BR,-6.9811,-34.8339,75.87,85,12,10.16,1631577103
533,yarega,RU,63.4354,53.5765,38.3,80,96,7.2,1631577103
534,goreloye,RU,52.937,41.5043,59.67,58,70,7.74,1631577104
535,fare,PF,-16.7,-151.0167,77.74,77,14,14.83,1631577104
536,kresttsy,RU,58.2452,32.5165,44.78,88,86,9.98,1631577104
537,mackay,AU,-21.15,149.2,80.04,73,3,2.3,1631577105
538,birjand,IR,32.8663,59.2211,55.87,18,0,9.22,1631577105
539,atlantis,ZA,-33.5667,18.4834,52.09,84,0,5.1,1631577105
540,harstad,NO,68.799,16.5293,43.83,90,100,11.01,1631577106
541,kholmogory,RU,64.2229,41.656,48.31,87,100,15.08,1631577106
542,skagen,DK,57.7209,10.5839,60.1,79,32,7.11,1631577106
543,kerrville,US,30.0474,-99.1403,84.42,61,90,4.61,1631576828
544,chateaudun,FR,48.0833,1.3333,66.4,72,99,5.75,1631577107
545,palmerston,AU,-12.486,130.9833,83.93,81,40,5.75,1631577107
546,pokhara,NP,28.2333,83.9833,70.02,87,100,4.88,1631577108
547,ketchikan,US,55.3422,-131.6461,54.07,94,90,18.41,1631577108
548,iisalmi,FI,63.5592,27.1907,44.62,96,87,14.67,1631577109
549,naryan-mar,RU,67.6713,53.087,38.86,67,100,7.2,1631577109
550,vestmannaeyjar,IS,63.4427,-20.2734,49.59,71,99,30.42,1631577109
551,mantua,IT,45.1667,10.7833,71.71,74,25,1.01,1631577110
552,manta,EC,-0.95,-80.7333,73.18,83,90,10.36,1631577076
553,sernovodsk,RU,43.3117,45.1594,57.76,87,55,3.89,1631577110
554,wick,GB,58.4333,-3.0833,55.45,88,29,8.05,1631577111
555,bartica,GY,6.4,-58.6167,80.92,89,57,2.3,1631577111
556,bakchar,RU,57.0186,82.0711,39.33,82,100,6.17,1631577111
557,chiang rai,TH,19.9167,99.9167,71.58,100,40,4.61,1631577112
558,selenduma,RU,50.9131,106.2406,55.65,73,100,3.85,1631577112
559,shahpura,IN,27.3833,75.9667,78.13,86,70,4.63,1631577112
560,lensk,RU,60.7253,114.9278,50.18,77,20,2.08,1631577113
561,chizhou,CN,30.6578,117.4831,71.89,94,76,4.27,1631577113
